[
  {
    "name": "Bridalveil Fall trailhead",
    "lat": 37.7196,
    "lon": -119.6501,
    "region": "Yosemite Valley",
    "accesses": "Bridalveil Fall, Pohono Trail access",
    "node_id": 1742202981,
    "snap_distance_m": 134.1
  },
  {
    "name": "Camp 4",
    "lat": 37.7424,
    "lon": -119.6025,
    "region": "Yosemite Valley",
    "accesses": "Yosemite Falls trail, El Capitan base, valley loop",
    "node_id": 4128591889,
    "snap_distance_m": 49.1
  },
  {
    "name": "Cathedral Lakes trailhead",
    "lat": 37.8764,
    "lon": -119.3823,
    "region": "Tuolumne Meadows",
    "accesses": "Cathedral Lakes, Cathedral Peak, Sunrise, Echo Pass",
    "node_id": 94834943,
    "snap_distance_m": 337.8
  },
  {
    "name": "Chilnualna Falls trailhead",
    "lat": 37.5449,
    "lon": -119.6361,
    "region": "Wawona",
    "accesses": "Chilnualna Falls, Buena Vista Trail, Royal Arch Lake",
    "node_id": 11163374899,
    "snap_distance_m": 459.9
  },
  {
    "name": "Devils Postpile / Reds Meadow trailhead",
    "lat": 37.6243,
    "lon": -119.0822,
    "region": "Ansel Adams Wilderness",
    "accesses": "Devils Postpile, Rainbow Falls, San Joaquin River, JMT south",
    "node_id": 11560285398,
    "snap_distance_m": 152.2
  },
  {
    "name": "Elizabeth Lake trailhead",
    "lat": 37.8722,
    "lon": -119.3467,
    "region": "Tuolumne Meadows",
    "accesses": "Elizabeth Lake, Unicorn Peak",
    "node_id": 842919113,
    "snap_distance_m": 110.3
  },
  {
    "name": "Four Mile Trail trailhead",
    "lat": 37.7267,
    "lon": -119.6017,
    "region": "Yosemite Valley",
    "accesses": "Four Mile Trail, Union Point, Glacier Point from the valley floor",
    "node_id": 5142337957,
    "snap_distance_m": 371.9
  },
  {
    "name": "Gianelli trailhead",
    "lat": 38.2126,
    "lon": -119.9021,
    "region": "Emigrant Wilderness",
    "accesses": "Burst Rock, Powell Lake, Chewing Gum Lake, Crabtree",
    "node_id": 10119183176,
    "snap_distance_m": 1342.1
  },
  {
    "name": "Glacier Point",
    "lat": 37.7284,
    "lon": -119.5737,
    "region": "South Rim",
    "accesses": "Panorama Trail, Four Mile Trail, Pohono Trail, Illilouette Fall, Nevada Fall loop",
    "node_id": 1713907236,
    "snap_distance_m": 19.7
  },
  {
    "name": "Glen Aulin trailhead",
    "lat": 37.8749,
    "lon": -119.3578,
    "region": "Tuolumne Meadows",
    "accesses": "Glen Aulin, Waterwheel Falls, California Falls, Le Conte Falls, Grand Canyon of the Tuolumne",
    "node_id": 6840644025,
    "snap_distance_m": 183.4
  },
  {
    "name": "Green Creek trailhead",
    "lat": 38.1062,
    "lon": -119.2773,
    "region": "Hoover Wilderness",
    "accesses": "Green Lake, East Lake, West Lake, Virginia Pass",
    "node_id": 89771893,
    "snap_distance_m": 224.5
  },
  {
    "name": "Happy Isles",
    "lat": 37.7326,
    "lon": -119.5584,
    "region": "Yosemite Valley",
    "accesses": "Mist Trail, John Muir Trail, Vernal & Nevada Falls, Half Dome, Little Yosemite Valley",
    "node_id": 1742208425,
    "snap_distance_m": 59.8
  },
  {
    "name": "Hetch Hetchy trailhead",
    "lat": 37.947,
    "lon": -119.7869,
    "region": "Hetch Hetchy",
    "accesses": "Wapama Falls, Rancheria Falls, Tueeulala Falls, Laurel Lake, Lake Eleanor, Pate Valley via Beehive",
    "node_id": 94664287,
    "snap_distance_m": 241.2
  },
  {
    "name": "Kennedy Meadows trailhead",
    "lat": 38.3164,
    "lon": -119.7388,
    "region": "Emigrant Wilderness",
    "accesses": "Relief Reservoir, Kennedy Lake, Lower Relief Valley, PCT north",
    "node_id": 94666330,
    "snap_distance_m": 832.1
  },
  {
    "name": "Lembert Dome / Dog Lake trailhead",
    "lat": 37.8764,
    "lon": -119.3527,
    "region": "Tuolumne Meadows",
    "accesses": "Lembert Dome, Dog Lake, Young Lakes, Glen Aulin, Soda Springs, Tuolumne Falls",
    "node_id": 95051213,
    "snap_distance_m": 98.5
  },
  {
    "name": "Mammoth Pass / Horseshoe Lake trailhead",
    "lat": 37.6105,
    "lon": -119.0317,
    "region": "Ansel Adams Wilderness",
    "accesses": "Horseshoe Lake, McLeod Lake, Mammoth Crest, Red Cones",
    "node_id": 3860523174,
    "snap_distance_m": 222.0
  },
  {
    "name": "May Lake trailhead",
    "lat": 37.8437,
    "lon": -119.4941,
    "region": "Tioga Road",
    "accesses": "May Lake, Mount Hoffmann",
    "node_id": 8586917701,
    "snap_distance_m": 222.8
  },
  {
    "name": "Merced Grove trailhead",
    "lat": 37.7492,
    "lon": -119.8462,
    "region": "Big Oak Flat Road",
    "accesses": "Merced Grove of giant sequoias",
    "node_id": 559919418,
    "snap_distance_m": 578.4
  },
  {
    "name": "Mirror Lake / Tenaya Canyon trailhead",
    "lat": 37.7432,
    "lon": -119.5477,
    "region": "Yosemite Valley",
    "accesses": "Mirror Lake, Snow Creek Trail, Tenaya Canyon",
    "node_id": 1742216474,
    "snap_distance_m": 485.9
  },
  {
    "name": "Mono Meadow trailhead",
    "lat": 37.7099,
    "lon": -119.5731,
    "region": "South Rim",
    "accesses": "Mono Meadow, Ottoway Lakes, Merced Pass, Illilouette Creek",
    "node_id": 331513593,
    "snap_distance_m": 698.6
  },
  {
    "name": "Mono Pass trailhead",
    "lat": 37.8927,
    "lon": -119.2795,
    "region": "Tioga Pass",
    "accesses": "Mono Pass, Spillway Lake, Helen Lake, Parker Pass",
    "node_id": 10290275443,
    "snap_distance_m": 1484.7
  },
  {
    "name": "North Dome / Porcupine Creek trailhead",
    "lat": 37.7996,
    "lon": -119.5395,
    "region": "Tioga Road",
    "accesses": "North Dome, Indian Rock Arch, Basket Dome, Royal Arches",
    "node_id": 5735926602,
    "snap_distance_m": 661.0
  },
  {
    "name": "Ostrander Lake trailhead",
    "lat": 37.6731,
    "lon": -119.6213,
    "region": "South Rim",
    "accesses": "Ostrander Lake, Horizon Ridge, Horse Ridge",
    "node_id": 89203374,
    "snap_distance_m": 1083.0
  },
  {
    "name": "Rush Creek trailhead (Silver Lake)",
    "lat": 37.7866,
    "lon": -119.1339,
    "region": "Ansel Adams Wilderness",
    "accesses": "Gem Lake, Waugh Lake, Marie Lakes, Donohue Pass, Mount Lyell",
    "node_id": 89561836,
    "snap_distance_m": 557.9
  },
  {
    "name": "Saddlebag Lake trailhead",
    "lat": 37.9627,
    "lon": -119.2716,
    "region": "Hoover Wilderness",
    "accesses": "Twenty Lakes Basin, Steelhead Lake, Greenstone Lake, Lundy Pass",
    "node_id": 89493645,
    "snap_distance_m": 381.0
  },
  {
    "name": "Sunrise Lakes / Clouds Rest trailhead",
    "lat": 37.827,
    "lon": -119.4676,
    "region": "Tioga Road",
    "accesses": "Sunrise Lakes, Clouds Rest, Sunrise High Sierra Camp",
    "node_id": 5491618871,
    "snap_distance_m": 47.2
  },
  {
    "name": "Taft Point trailhead",
    "lat": 37.7133,
    "lon": -119.5893,
    "region": "South Rim",
    "accesses": "Taft Point, Sentinel Dome, Pohono Trail",
    "node_id": 331512241,
    "snap_distance_m": 208.2
  },
  {
    "name": "Ten Lakes trailhead",
    "lat": 37.8509,
    "lon": -119.5209,
    "region": "Tioga Road",
    "accesses": "Ten Lakes, Grant Lakes, Ten Lakes Pass",
    "node_id": 332603994,
    "snap_distance_m": 1046.1
  },
  {
    "name": "Tenaya Lake trailhead",
    "lat": 37.831,
    "lon": -119.452,
    "region": "Tioga Road",
    "accesses": "Tenaya Lake, Mildred Lake, Cathedral Pass via Tenaya, lake-shore loop",
    "node_id": 3736959973,
    "snap_distance_m": 297.5
  },
  {
    "name": "Tuolumne Grove trailhead",
    "lat": 37.7596,
    "lon": -119.8041,
    "region": "Big Oak Flat Road",
    "accesses": "Tuolumne Grove of giant sequoias, Hodgdon Meadow",
    "node_id": 4156594198,
    "snap_distance_m": 203.3
  },
  {
    "name": "Tuolumne Meadows Ranger Station",
    "lat": 37.8755,
    "lon": -119.3399,
    "region": "Tuolumne Meadows",
    "accesses": "Vogelsang, Rafferty Creek, Tuolumne Pass, Fletcher Lake, John Muir Trail south",
    "node_id": 2443957950,
    "snap_distance_m": 227.5
  },
  {
    "name": "Twin Lakes trailhead",
    "lat": 38.1533,
    "lon": -119.3614,
    "region": "Hoover Wilderness",
    "accesses": "Robinson Creek, Barney Lake, Crown Lake, Peeler Lake, Matterhorn Peak",
    "node_id": 89807395,
    "snap_distance_m": 794.6
  },
  {
    "name": "Virginia Lakes trailhead",
    "lat": 38.0556,
    "lon": -119.257,
    "region": "Hoover Wilderness",
    "accesses": "Frog Lakes, Cooney Lake, Summit Lake, Burro Pass",
    "node_id": 8569451811,
    "snap_distance_m": 717.5
  },
  {
    "name": "Wawona / Swinging Bridge trailhead",
    "lat": 37.5361,
    "lon": -119.6606,
    "region": "Wawona",
    "accesses": "Alder Creek, Wawona Dome, Wawona Meadow Loop",
    "node_id": 89285850,
    "snap_distance_m": 719.9
  },
  {
    "name": "White Wolf trailhead",
    "lat": 37.8594,
    "lon": -119.6446,
    "region": "Tioga Road",
    "accesses": "Harden Lake, Lukens Lake via White Wolf, Pate Valley, Grand Canyon of the Tuolumne",
    "node_id": 1744945075,
    "snap_distance_m": 1221.0
  },
  {
    "name": "Yosemite Creek trailhead",
    "lat": 37.8534,
    "lon": -119.5736,
    "region": "Tioga Road",
    "accesses": "Top of Yosemite Falls via Yosemite Creek, Eagle Peak, El Capitan rim",
    "node_id": 1444820738,
    "snap_distance_m": 236.9
  },
  {
    "name": "Yosemite Falls trailhead",
    "lat": 37.7428,
    "lon": -119.5964,
    "region": "Yosemite Valley",
    "accesses": "Upper & Lower Yosemite Falls, Eagle Peak, Yosemite Point",
    "node_id": 1742216208,
    "snap_distance_m": 325.1
  }
]